[
  {
    "name": "Faculty of Engineering",
    "type": "academic",
    "description": "Houses Civil, Electrical, and Mechanical departments.",
    "lat": 13.0590,
    "lng": 5.2385
  },
  {
    "name": "Male Hostel B",
    "type": "hostel",
    "description": "Located near the Senate Building.",
    "lat": 13.0575,
    "lng": 5.2391
  },
  {
    "name": "UDUS Library",
    "type": "service",
    "description": "Main academic library for students.",
    "lat": 13.0588,
    "lng": 5.2405
  },
  {
  "name": "Faculty of Science",
  "description": "Main science faculty building, houses Physics, Chemistry, Biology.",
  "lat": 13.0602,
  "lng": 5.2395,
  "type": "academic"
},
   {
    "name": "City Campus",
    "lat": 13.075,
    "lng": 5.247,
    "description": "UDUS City Campus",
    "type": "academic"
  },
  {
    "name": "UDUTH Teaching Hospital",
    "lat": 13.071,
    "lng": 5.250,
    "description": "Usmanu Danfodiyo University Teaching Hospital",
    "type": "service"
  },
  {
    "name": "Faculty of Agriculture",
    "lat": 13.059,
    "lng": 5.241,
    "description": "Main Agriculture Block",
    "type": "academic"
  }
]
